[{"id":"22","name":"TestImage","address":"placeholder","lng":"-3.37521","lat":"47.7069","altitude":"82.81","upload_date":"2019-08-01 07:51:27","type":"jpeg","image_id":"0"},{"id":"30","name":"Scotland","address":"placeholder","lng":"-6.18284","lat":"57.4577","altitude":"177.1","upload_date":"2019-08-01 21:39:23","type":"jpeg","image_id":"0"},{"id":"15","name":"Quiberon","address":"placeholder","lng":"-3.14242","lat":"47.4902","altitude":"17.935","upload_date":"2019-07-19 04:15:45","type":"jpeg","image_id":"0"},{"id":"37","name":"Boardwalk Empire","address":"placeholder","lng":"-3.37273","lat":"47.7015","altitude":"85.81","upload_date":"2019-08-16 18:02:27","type":"jpeg","image_id":null},{"id":"38","name":"Boardwalk Empire","address":"placeholder","lng":"-3.37273","lat":"47.7015","altitude":"85.81","upload_date":"2019-08-16 18:14:13","type":"jpeg","image_id":null},{"id":"39","name":"TestImage","address":"placeholder","lng":"-3.37521","lat":"47.7069","altitude":"82.81","upload_date":"2019-08-19 17:33:20","type":"jpeg","image_id":null},{"id":"40","name":"TestImage","address":"placeholder","lng":"-3.37521","lat":"47.7069","altitude":"82.81","upload_date":"2019-08-19 19:31:59","type":"jpeg","image_id":null},{"id":"41","name":"TestImage","address":"placeholder","lng":"-3.37521","lat":"47.7069","altitude":"82.81","upload_date":"2019-08-19 20:10:28","type":"jpeg","image_id":null},{"id":"42","name":"TestImage","address":"placeholder","lng":"-3.37521","lat":"47.7069","altitude":"82.81","upload_date":"2019-08-19 20:12:46","type":"jpeg","image_id":null},{"id":"43","name":"TestImage","address":"placeholder","lng":"-3.37521","lat":"47.7069","altitude":"82.81","upload_date":"2019-08-19 20:13:57","type":"jpeg","image_id":null},{"id":"44","name":"TestImage","address":"placeholder","lng":"-3.37521","lat":"47.7069","altitude":"82.81","upload_date":"2019-08-19 20:20:28","type":"jpeg","image_id":null},{"id":"45","name":"TestImage","address":"placeholder","lng":"-3.37521","lat":"47.7069","altitude":"82.81","upload_date":"2019-08-19 20:27:40","type":"jpeg","image_id":null},{"id":"46","name":"TestImage","address":"placeholder","lng":"-3.37521","lat":"47.7069","altitude":"82.81","upload_date":"2019-08-19 20:44:10","type":"jpeg","image_id":null}]