[{"id":"1","name":"Love.Fish","address":"580 Darling Street, Rozelle, NSW","lat":"-33.861","lng":"151.172","type":"jpeg"},{"id":"2","name":"Young Henrys","address":"76 Wilford Street, Newtown, NSW","lat":"-33.8981","lng":"151.174","type":"png"},{"id":"3","name":"Hunter Gatherer","address":"Greenwood Plaza, 36 Blue St, North Sydney NSW","lat":"-33.8403","lng":"151.207","type":"png"},{"id":"4","name":"The Potting Shed","address":"7A, 2 Huntley Street, Alexandria, NSW","lat":"-33.9108","lng":"151.194","type":"png"},{"id":"5","name":"Nomad","address":"16 Foster Street, Surry Hills, NSW","lat":"-33.8799","lng":"151.21","type":"png"},{"id":"6","name":"Three Blue Ducks","address":"43 Macpherson Street, Bronte, NSW","lat":"-33.9064","lng":"151.264","type":"jpeg"},{"id":"42","name":"Quiberon","address":"John Doe","lat":"47.4902","lng":"-3.14242","type":"jpeg"},{"id":"10","name":"Kerfany","address":"Kerfany","lat":"-3.71054","lng":"47.8079","type":"jpeg"},{"id":"11","name":"Quimper","address":"Quimper","lat":"47.9963","lng":"-4.09666","type":"jpg"},{"id":"35","name":"Brest","address":"Brest","lat":"48.4228","lng":"-4.46736","type":"jpeg"},{"id":"23","name":"test","address":"Alexandre","lat":"47.7027","lng":"-3.39569","type":"jpeg"},{"id":"27","name":"Ecosse","address":"Alexandre","lat":"57.4577","lng":"-6.18284","type":"jpeg"},{"id":"32","name":"testCA","address":"testCA","lat":"43.988","lng":"-64.4223","type":"jpeg"}]